{
 "mission": {
  "name": "mission_esrom_2024Jun06_1",
  "comment": "15.05.2024 11:05:52",
  "devices": [
   {
    "serialNumber": "SUSDA14_2302002",
    "name": "SCM",
    "type": "DEVICE_SURFACE",
    "mapTracesColor": "#ff0055ff",
    "mapTextColor": "#ff000000",
    "home": {},
    "maxDepth": 300,
    "payloadKeys": [
     0
    ]
   },
   {
    "serialNumber": "NEMOSENS_2304001",
    "name": "Nemo",
    "type": "DEVICE_DRONE",
    "mapTracesColor": "#ff15ff11",
    "mapTextColor": "#ff000000",
    "paths": [
     {
      "name": "Path2",
      "stages": [
       {
        "name": "Start",
        "latitude": 55.96952679278639,
        "longitude": 12.367990461620794,
        "navigation": {
         "velocity": 1.5,
         "depth": 1,
         "waypoint": {
          "radius": 10,
          "timeout": 120
         }
        }
       }
      ]
     },
     {
      "name": "Path8",
      "stages": [
       {
        "name": "WP1",
        "latitude": 55.969923623310443,
        "longitude": 12.36588355262808,
        "navigation": {
         "velocity": 1.5,
         "depth": 1,
         "waypoint": {
          "radius": 10,
          "timeout": 120
         }
        }
       }
      ]
     },
     {
      "name": "RailFamily1",
      "type": "PATH_RAIL",
      "stages": [
       {
        "name": "J1 A",
        "latitude": 55.970291207029874,
        "longitude": 12.366523225129955,
        "navigation": {
         "velocity": 1.5,
         "depth": 1,
         "railBegin": {
          "timeout": 120,
          "radius": 10
         }
        }
       },
       {
        "name": "J1 B",
        "latitude": 55.971250655548843,
        "longitude": 12.368213504059641,
        "navigation": {
         "velocity": 1,
         "depth": 1,
         "railEnd": {
          "timeout": 360,
          "radius": 10
         }
        }
       },
       {
        "name": "J2 A",
        "latitude": 55.971546946779846,
        "longitude": 12.367611754548827,
        "navigation": {
         "velocity": 1.5,
         "depth": 1,
         "railBegin": {
          "timeout": 360,
          "radius": 10
         }
        }
       },
       {
        "name": "J2 B",
        "latitude": 55.97058749830736,
        "longitude": 12.365921490510484,
        "navigation": {
         "velocity": 1.5,
         "depth": 1,
         "railEnd": {
          "timeout": 360,
          "radius": 10
         }
        }
       },
       {
        "name": "J3 A",
        "latitude": 55.970895191093838,
        "longitude": 12.365338229332453,
        "navigation": {
         "velocity": 1.5,
         "depth": 1,
         "railBegin": {
          "timeout": 360,
          "radius": 10
         }
        }
       },
       {
        "name": "J3 B",
        "latitude": 55.971854639518078,
        "longitude": 12.36702847893647,
        "navigation": {
         "velocity": 2,
         "depth": 1,
         "railEnd": {
          "timeout": 150,
          "radius": 10
         }
        }
       }
      ]
     },
     {
      "name": "Path7",
      "stages": [
       {
        "name": "WP5",
        "latitude": 55.969688020723346,
        "longitude": 12.368013779781641,
        "navigation": {
         "velocity": 3,
         "depth": 1,
         "waypoint": {
          "radius": 10,
          "timeout": 200
         }
        }
       }
      ]
     },
     {
      "name": "Path5",
      "stages": [
       {
        "name": "Surface",
        "latitude": 55.969633597525629,
        "longitude": 12.368149434285568,
        "navigation": {
         "velocity": 1.5,
         "depth": 0,
         "surface": {
          "timeout": 200
         }
        }
       }
      ]
     },
     {
      "name": "Path7",
      "stages": [
       {
        "name": "End",
        "latitude": 55.969398405167588,
        "longitude": 12.36824554504784,
        "navigation": {
         "velocity": 1.5,
         "depth": 1,
         "waypoint": {
          "radius": 10,
          "timeout": 250
         }
        }
       }
      ]
     }
    ],
    "home": {
     "latitude": 55.969275549583244,
     "longitude": 12.368672870775265,
     "velocity": 1.5,
     "depth": 1
    },
    "maxDepth": 300,
    "payloadKeys": [
     1,
     2
    ]
   }
  ],
  "dictionary": {
   "messages": [
    {
     "text": "GOING UP",
     "key": {
      "value": "1"
     }
    },
    {
     "text": "GOING DOWN",
     "key": {
      "value": "2"
     }
    },
    {
     "text": "ALL IS GOOD",
     "key": {
      "value": "3"
     }
    },
    {
     "text": "ROGER",
     "key": {
      "value": "4"
     }
    }
   ]
  },
  "racamCelerity": 1450,
  "editDatetime": 1717655326,
  "store": {
   "2": {
    "name": "AML_1",
    "aml": {
     "info": {
      "optionEnable": true
     }
    }
   },
   "0": {
    "name": "RACAM_SCM",
    "racam": {
     "modem": {
      "frequency": 18000,
      "gain": -3,
      "period": 6
     },
     "localize": {},
     "celerity": 1450,
     "transducerDepth": 3
    }
   },
   "1": {
    "name": "RACAM_Nemo",
    "racam": {
     "modem": {
      "numid": 1,
      "frequency": 18000,
      "gain": -3,
      "delay": 3,
      "period": 6
     },
     "localize": {},
     "celerity": 1450,
     "transducerDepth": 3
    }
   }
  }
 },
 "devicesui": [
  {
   "mapColor": "#ffff02bc"
  },
  {
   "mapColor": "#ffaa00ff"
  }
 ],
 "storeui": {
  "1": {},
  "2": {},
  "0": {}
 }
}
